{
  "temples": {
    "T1": {
      "id": "T1",
      "name": "Ahobilam",
      "latitude": 15.133751,
      "longitude": 78.6748824,
      "state": "Uttar Pradesh",
      "police_contact": "0522-226235",
      "address": "Station Road, near Ahobilam, Uttar Pradesh",
      "zones_config": [],
      "exit_routes_config": []
    },
    "T2": {
      "id": "T2",
      "name": "Alipiri",
      "latitude": 13.6458001,
      "longitude": 79.4072415,
      "state": "Uttar Pradesh",
      "police_contact": "0522-229592",
      "address": "Station Road, near Alipiri, Uttar Pradesh",
      "zones_config": [],
      "exit_routes_config": []
    },
    "T3": {
      "id": "T3",
      "name": "Annavaram",
      "latitude": 17.2833149,
      "longitude": 82.4080348,
      "state": "Uttar Pradesh",
      "police_contact": "0522-228131",
      "address": "Station Road, near Annavaram, Uttar Pradesh",
      "zones_config": [],
      "exit_routes_config": []
    },
    "T4": {
      "id": "T4",
      "name": "Jogulamba Temple, Alampur",
      "latitude": 15.8769983,
      "longitude": 78.1345936,
      "state": "Uttar Pradesh",
      "police_contact": "0522-225021",
      "address": "Station Road, near Jogulamba Temple, Alampur, Uttar Pradesh",
      "zones_config": [],
      "exit_routes_config": []
    },
    "T5": {
      "id": "T5",
      "name": "Kanaka Durga Temple",
      "latitude": 16.5154058,
      "longitude": 80.6065339,
      "state": "Uttar Pradesh",
      "police_contact": "0522-228720",
      "address": "Station Road, near Kanaka Durga Temple, Uttar Pradesh",
      "zones_config": [],
      "exit_routes_config": []
    },
    "T6": {
      "id": "T6",
      "name": "Kotappakonda",
      "latitude": 16.1469667,
      "longitude": 80.0354224,
      "state": "Uttar Pradesh",
      "police_contact": "0522-224372",
      "address": "Station Road, near Kotappakonda, Uttar Pradesh",
      "zones_config": [],
      "exit_routes_config": []
    },
    "T7": {
      "id": "T7",
      "name": "Ksheerarama",
      "latitude": 16.5278671,
      "longitude": 81.7309919,
      "state": "Uttar Pradesh",
      "police_contact": "0522-228047",
      "address": "Station Road, near Ksheerarama, Uttar Pradesh",
      "zones_config": [],
      "exit_routes_config": []
    },
    "T8": {
      "id": "T8",
      "name": "Kumararama",
      "latitude": 17.0421818,
      "longitude": 82.1713115,
      "state": "Uttar Pradesh",
      "police_contact": "0522-226748",
      "address": "Station Road, near Kumararama, Uttar Pradesh",
      "zones_config": [],
      "exit_routes_config": []
    },
    "T9": {
      "id": "T9",
      "name": "Lakshmi Narasimha Swamy Temple, Penna Ahobilam",
      "latitude": 14.8603473,
      "longitude": 77.3063808,
      "state": "Uttar Pradesh",
      "police_contact": "0522-227654",
      "address": "Station Road, near Lakshmi Narasimha Swamy Temple, Penna Ahobilam, Uttar Pradesh",
      "zones_config": [],
      "exit_routes_config": []
    },
    "T10": {
      "id": "T10",
      "name": "Mallikarjuna Temple, Srisailam",
      "latitude": 16.0503482,
      "longitude": 78.9008675,
      "state": "Uttar Pradesh",
      "police_contact": "0522-225729",
      "address": "Station Road, near Mallikarjuna Temple, Srisailam, Uttar Pradesh",
      "zones_config": [],
      "exit_routes_config": []
    },
    "T11": {
      "id": "T11",
      "name": "Mantralayam",
      "latitude": 15.9413643,
      "longitude": 77.4236981,
      "state": "Uttar Pradesh",
      "police_contact": "0522-229156",
      "address": "Station Road, near Mantralayam, Uttar Pradesh",
      "zones_config": [],
      "exit_routes_config": []
    },
    "T12": {
      "id": "T12",
      "name": "Chennakesava Swamy Temple, Markapur",
      "latitude": 15.7388892,
      "longitude": 79.2716228,
      "state": "Uttar Pradesh",
      "police_contact": "0522-221605",
      "address": "Station Road, near Chennakesava Swamy Temple, Markapur, Uttar Pradesh",
      "zones_config": [],
      "exit_routes_config": []
    },
    "T13": {
      "id": "T13",
      "name": "Prasanna Venkateswara Temple, Appalayagunta",
      "latitude": 13.5373498,
      "longitude": 79.4778578,
      "state": "Uttar Pradesh",
      "police_contact": "0522-226375",
      "address": "Station Road, near Prasanna Venkateswara Temple, Appalayagunta, Uttar Pradesh",
      "zones_config": [],
      "exit_routes_config": []
    },
    "T14": {
      "id": "T14",
      "name": "Suryanarayana Temple, Arasavalli",
      "latitude": 18.2881305,
      "longitude": 83.9130594,
      "state": "Uttar Pradesh",
      "police_contact": "0522-222264",
      "address": "Station Road, near Suryanarayana Temple, Arasavalli, Uttar Pradesh",
      "zones_config": [],
      "exit_routes_config": []
    },
    "T15": {
      "id": "T15",
      "name": "Varahaswamy Temple, Tirumala",
      "latitude": 13.6848751,
      "longitude": 79.3476435,
      "state": "Uttar Pradesh",
      "police_contact": "0522-223169",
      "address": "Station Road, near Varahaswamy Temple, Tirumala, Uttar Pradesh",
      "zones_config": [],
      "exit_routes_config": []
    },
    "T16": {
      "id": "T16",
      "name": "Vedadri Narasimha Temple",
      "latitude": 16.8152045,
      "longitude": 80.1242618,
      "state": "Uttar Pradesh",
      "police_contact": "0522-227618",
      "address": "Station Road, near Vedadri Narasimha Temple, Uttar Pradesh",
      "zones_config": [],
      "exit_routes_config": []
    },
    "T17": {
      "id": "T17",
      "name": "Venkateswara Temple, Dwaraka Tirumala",
      "latitude": 16.9551502,
      "longitude": 81.2567672,
      "state": "Uttar Pradesh",
      "police_contact": "0522-224426",
      "address": "Station Road, near Venkateswara Temple, Dwaraka Tirumala, Uttar Pradesh",
      "zones_config": [],
      "exit_routes_config": []
    },
    "T18": {
      "id": "T18",
      "name": "Venkateswara Temple",
      "latitude": 17.9355647,
      "longitude": 83.4221266,
      "state": "Uttar Pradesh",
      "police_contact": "0522-226187",
      "address": "Station Road, near Venkateswara Temple, Uttar Pradesh",
      "zones_config": [],
      "exit_routes_config": []
    },
    "T19": {
      "id": "T19",
      "name": "Vinayaka Temple, Kanipakam",
      "latitude": 13.2770145,
      "longitude": 79.0335591,
      "state": "Uttar Pradesh",
      "police_contact": "0522-228884",
      "address": "Station Road, near Vinayaka Temple, Kanipakam, Uttar Pradesh",
      "zones_config": [],
      "exit_routes_config": []
    },
    "T20": {
      "id": "T20",
      "name": "Sri Yaganti Uma Maheswara Temple",
      "latitude": 15.3505974,
      "longitude": 78.1386784,
      "state": "Uttar Pradesh",
      "police_contact": "0522-223863",
      "address": "Station Road, near Sri Yaganti Uma Maheswara Temple, Uttar Pradesh",
      "zones_config": [],
      "exit_routes_config": []
    },
    "T21": {
      "id": "T21",
      "name": "Kamakhya Temple",
      "latitude": 26.165107,
      "longitude": 91.7059298,
      "state": "Uttar Pradesh",
      "police_contact": "0522-229028",
      "address": "Station Road, near Kamakhya Temple, Uttar Pradesh",
      "zones_config": [],
      "exit_routes_config": []
    },
    "T22": {
      "id": "T22",
      "name": "Malinithan",
      "latitude": 27.6577367,
      "longitude": 94.7149447,
      "state": "Uttar Pradesh",
      "police_contact": "0522-221212",
      "address": "Station Road, near Malinithan, Uttar Pradesh",
      "zones_config": [],
      "exit_routes_config": []
    },
    "T23": {
      "id": "T23",
      "name": "ISKCON Temple Patna",
      "latitude": 25.6069713,
      "longitude": 85.1334882,
      "state": "Uttar Pradesh",
      "police_contact": "0522-224919",
      "address": "Station Road, near ISKCON Temple Patna, Uttar Pradesh",
      "zones_config": [],
      "exit_routes_config": []
    },
    "T24": {
      "id": "T24",
      "name": "Kapileshwar Temple",
      "latitude": 26.3506103,
      "longitude": 86.0005254,
      "state": "Uttar Pradesh",
      "police_contact": "0522-223889",
      "address": "Station Road, near Kapileshwar Temple, Uttar Pradesh",
      "zones_config": [],
      "exit_routes_config": []
    },
    "T25": {
      "id": "T25",
      "name": "Mahavir Hanuman Temple",
      "latitude": 25.6040316,
      "longitude": 85.1366103,
      "state": "Uttar Pradesh",
      "police_contact": "0522-227815",
      "address": "Station Road, near Mahavir Hanuman Temple, Uttar Pradesh",
      "zones_config": [],
      "exit_routes_config": []
    },
    "T26": {
      "id": "T26",
      "name": "Mangla Gauri Temple",
      "latitude": 24.7749497,
      "longitude": 85.0024913,
      "state": "Uttar Pradesh",
      "police_contact": "0522-227355",
      "address": "Station Road, near Mangla Gauri Temple, Uttar Pradesh",
      "zones_config": [],
      "exit_routes_config": []
    },
    "T27": {
      "id": "T27",
      "name": "Mittheswarnath Shiv Temple, Darbhanga District",
      "latitude": 26.1696574,
      "longitude": 85.9090669,
      "state": "Uttar Pradesh",
      "police_contact": "0522-225114",
      "address": "Station Road, near Mittheswarnath Shiv Temple, Darbhanga District, Uttar Pradesh",
      "zones_config": [],
      "exit_routes_config": []
    },
    "T28": {
      "id": "T28",
      "name": "Mundeshwari Temple",
      "latitude": 24.9835105,
      "longitude": 83.5646265,
      "state": "Uttar Pradesh",
      "police_contact": "0522-223327",
      "address": "Station Road, near Mundeshwari Temple, Uttar Pradesh",
      "zones_config": [],
      "exit_routes_config": []
    },
    "T29": {
      "id": "T29",
      "name": "Shanti Baba Temple, Bhagalpur",
      "latitude": 25.2644581,
      "longitude": 87.2227106,
      "state": "Uttar Pradesh",
      "police_contact": "0522-224100",
      "address": "Station Road, near Shanti Baba Temple, Bhagalpur, Uttar Pradesh",
      "zones_config": [],
      "exit_routes_config": []
    },
    "T30": {
      "id": "T30",
      "name": "Sita Kund",
      "latitude": 26.586475,
      "longitude": 85.4667332,
      "state": "Uttar Pradesh",
      "police_contact": "0522-224496",
      "address": "Station Road, near Sita Kund, Uttar Pradesh",
      "zones_config": [],
      "exit_routes_config": []
    },
    "T31": {
      "id": "T31",
      "name": "Thawe Mandir",
      "latitude": 26.4376334,
      "longitude": 84.3949548,
      "state": "Uttar Pradesh",
      "police_contact": "0522-221433",
      "address": "Station Road, near Thawe Mandir, Uttar Pradesh",
      "zones_config": [],
      "exit_routes_config": []
    },
    "T32": {
      "id": "T32",
      "name": "Vishnupad Temple",
      "latitude": 24.777363,
      "longitude": 85.009338,
      "state": "Uttar Pradesh",
      "police_contact": "0522-224932",
      "address": "Station Road, near Vishnupad Temple, Uttar Pradesh",
      "zones_config": [],
      "exit_routes_config": []
    },
    "T33": {
      "id": "T33",
      "name": "Chandi Mandir",
      "latitude": 30.7034833,
      "longitude": 76.7767945,
      "state": "Uttar Pradesh",
      "police_contact": "0522-222559",
      "address": "Station Road, near Chandi Mandir, Uttar Pradesh",
      "zones_config": [],
      "exit_routes_config": []
    },
    "T34": {
      "id": "T34",
      "name": "Ashtabhuji Temple",
      "latitude": 21.9532232,
      "longitude": 83.0248323,
      "state": "Uttar Pradesh",
      "police_contact": "0522-226128",
      "address": "Station Road, near Ashtabhuji Temple, Uttar Pradesh",
      "zones_config": [],
      "exit_routes_config": []
    },
    "T35": {
      "id": "T35",
      "name": "Bhoramdeo Temple",
      "latitude": 22.1154438,
      "longitude": 81.1482621,
      "state": "Uttar Pradesh",
      "police_contact": "0522-224339",
      "address": "Station Road, near Bhoramdeo Temple, Uttar Pradesh",
      "zones_config": [],
      "exit_routes_config": []
    },
    "T36": {
      "id": "T36",
      "name": "Danteshwari Temple",
      "latitude": 18.8966345,
      "longitude": 81.3449358,
      "state": "Uttar Pradesh",
      "police_contact": "0522-227130",
      "address": "Station Road, near Danteshwari Temple, Uttar Pradesh",
      "zones_config": [],
      "exit_routes_config": []
    },
    "T37": {
      "id": "T37",
      "name": "Laxman Temple, Sirpur",
      "latitude": 21.3531405,
      "longitude": 82.1867265,
      "state": "Uttar Pradesh",
      "police_contact": "0522-222966",
      "address": "Station Road, near Laxman Temple, Sirpur, Uttar Pradesh",
      "zones_config": [],
      "exit_routes_config": []
    },
    "T38": {
      "id": "T38",
      "name": "Mahamaya Temple",
      "latitude": 22.0253043,
      "longitude": 82.9605854,
      "state": "Uttar Pradesh",
      "police_contact": "0522-225645",
      "address": "Station Road, near Mahamaya Temple, Uttar Pradesh",
      "zones_config": [],
      "exit_routes_config": []
    },
    "T39": {
      "id": "T39",
      "name": "Mahamaya Temple",
      "latitude": 22.0253043,
      "longitude": 82.9605854,
      "state": "Uttar Pradesh",
      "police_contact": "0522-227487",
      "address": "Station Road, near Mahamaya Temple, Uttar Pradesh",
      "zones_config": [],
      "exit_routes_config": []
    },
    "T40": {
      "id": "T40",
      "name": "Mata Kaushalya Temple",
      "latitude": 21.3193823,
      "longitude": 81.8131187,
      "state": "Uttar Pradesh",
      "police_contact": "0522-227175",
      "address": "Station Road, near Mata Kaushalya Temple, Uttar Pradesh",
      "zones_config": [],
      "exit_routes_config": []
    },
    "T41": {
      "id": "T41",
      "name": "Sarvamangla",
      "latitude": 22.3636048,
      "longitude": 82.714584,
      "state": "Uttar Pradesh",
      "police_contact": "0522-222278",
      "address": "Station Road, near Sarvamangla, Uttar Pradesh",
      "zones_config": [],
      "exit_routes_config": []
    },
    "T42": {
      "id": "T42",
      "name": "ISKCON Temple, Delhi",
      "latitude": 28.6006842,
      "longitude": 77.0365926,
      "state": "Uttar Pradesh",
      "police_contact": "0522-222623",
      "address": "Station Road, near ISKCON Temple, Delhi, Uttar Pradesh",
      "zones_config": [],
      "exit_routes_config": []
    },
    "T43": {
      "id": "T43",
      "name": "Jhandewalan Temple",
      "latitude": 28.6491472,
      "longitude": 77.2041529,
      "state": "Uttar Pradesh",
      "police_contact": "0522-225027",
      "address": "Station Road, near Jhandewalan Temple, Uttar Pradesh",
      "zones_config": [],
      "exit_routes_config": []
    },
    "T44": {
      "id": "T44",
      "name": "Nili Chhatri",
      "latitude": 28.6626518,
      "longitude": 77.2424315,
      "state": "Uttar Pradesh",
      "police_contact": "0522-227302",
      "address": "Station Road, near Nili Chhatri, Uttar Pradesh",
      "zones_config": [],
      "exit_routes_config": []
    },
    "T45": {
      "id": "T45",
      "name": "Shani Dham Temple",
      "latitude": 28.4604339,
      "longitude": 77.1908226,
      "state": "Uttar Pradesh",
      "police_contact": "0522-223013",
      "address": "Station Road, near Shani Dham Temple, Uttar Pradesh",
      "zones_config": [],
      "exit_routes_config": []
    },
    "T46": {
      "id": "T46",
      "name": "Swaminarayan Akshardham",
      "latitude": 28.6125167,
      "longitude": 77.2773184,
      "state": "Uttar Pradesh",
      "police_contact": "0522-221518",
      "address": "Station Road, near Swaminarayan Akshardham, Uttar Pradesh",
      "zones_config": [],
      "exit_routes_config": []
    },
    "T47": {
      "id": "T47",
      "name": "Yogmaya Temple",
      "latitude": 28.5257019,
      "longitude": 77.1822181,
      "state": "Uttar Pradesh",
      "police_contact": "0522-223048",
      "address": "Station Road, near Yogmaya Temple, Uttar Pradesh",
      "zones_config": [],
      "exit_routes_config": []
    },
    "T48": {
      "id": "T48",
      "name": "Mahadev Temple, Tambdi Surla",
      "latitude": 15.4390416,
      "longitude": 74.2525411,
      "state": "Uttar Pradesh",
      "police_contact": "0522-227436",
      "address": "Station Road, near Mahadev Temple, Tambdi Surla, Uttar Pradesh",
      "zones_config": [],
      "exit_routes_config": []
    },
    "T49": {
      "id": "T49",
      "name": "Shri Damodar Temple",
      "latitude": 15.1866069,
      "longitude": 74.0945996,
      "state": "Uttar Pradesh",
      "police_contact": "0522-229965",
      "address": "Station Road, near Shri Damodar Temple, Uttar Pradesh",
      "zones_config": [],
      "exit_routes_config": []
    },
    "T50": {
      "id": "T50",
      "name": "Bhavnath",
      "latitude": 21.5278609,
      "longitude": 70.5010271,
      "state": "Uttar Pradesh",
      "police_contact": "0522-225713",
      "address": "Station Road, near Bhavnath, Uttar Pradesh",
      "zones_config": [],
      "exit_routes_config": []
    },
    "T51": {
      "id": "T51",
      "name": "Chotila",
      "latitude": 22.4243903,
      "longitude": 71.1992399,
      "state": "Uttar Pradesh",
      "police_contact": "0522-228138",
      "address": "Station Road, near Chotila, Uttar Pradesh",
      "zones_config": [],
      "exit_routes_config": []
    },
    "T52": {
      "id": "T52",
      "name": "Dwarkadhish Temple",
      "latitude": 22.2377737,
      "longitude": 68.9675115,
      "state": "Andhra Pradesh",
      "police_contact": "0866-248574",
      "address": "Station Road, near Dwarkadhish Temple, Andhra Pradesh",
      "zones_config": [],
      "exit_routes_config": []
    },
    "T53": {
      "id": "T53",
      "name": "Hanuman temple, Salangpur",
      "latitude": 22.1588943,
      "longitude": 71.7710351,
      "state": "Andhra Pradesh",
      "police_contact": "0866-243798",
      "address": "Station Road, near Hanuman temple, Salangpur, Andhra Pradesh",
      "zones_config": [],
      "exit_routes_config": []
    },
    "T54": {
      "id": "T54",
      "name": "Jagannath Temple, Ahmedabad",
      "latitude": 23.0114213,
      "longitude": 72.5810755,
      "state": "Andhra Pradesh",
      "police_contact": "0866-248796",
      "address": "Station Road, near Jagannath Temple, Ahmedabad, Andhra Pradesh",
      "zones_config": [],
      "exit_routes_config": []
    },
    "T55": {
      "id": "T55",
      "name": "Navlakha temple",
      "latitude": 21.8836442,
      "longitude": 69.7616776,
      "state": "Andhra Pradesh",
      "police_contact": "0866-245357",
      "address": "Station Road, near Navlakha temple, Andhra Pradesh",
      "zones_config": [],
      "exit_routes_config": []
    },
    "T56": {
      "id": "T56",
      "name": "Santram Mandir",
      "latitude": 22.6897828,
      "longitude": 72.8638679,
      "state": "Andhra Pradesh",
      "police_contact": "0866-244599",
      "address": "Station Road, near Santram Mandir, Andhra Pradesh",
      "zones_config": [],
      "exit_routes_config": []
    },
    "T57": {
      "id": "T57",
      "name": "Shamlaji",
      "latitude": 23.6878592,
      "longitude": 73.3861398,
      "state": "Andhra Pradesh",
      "police_contact": "0866-247008",
      "address": "Station Road, near Shamlaji, Andhra Pradesh",
      "zones_config": [],
      "exit_routes_config": []
    },
    "T58": {
      "id": "T58",
      "name": "Shiva temple, Kera",
      "latitude": 23.0881279,
      "longitude": 69.5936944,
      "state": "Andhra Pradesh",
      "police_contact": "0866-242974",
      "address": "Station Road, near Shiva temple, Kera, Andhra Pradesh",
      "zones_config": [],
      "exit_routes_config": []
    },
    "T59": {
      "id": "T59",
      "name": "Sun Temple, Modhera",
      "latitude": 23.5834213,
      "longitude": 72.1330777,
      "state": "Andhra Pradesh",
      "police_contact": "0866-246744",
      "address": "Station Road, near Sun Temple, Modhera, Andhra Pradesh",
      "zones_config": [],
      "exit_routes_config": []
    },
    "T60": {
      "id": "T60",
      "name": "Swaminarayan Temple, Ahmedabad",
      "latitude": 23.0028816,
      "longitude": 72.5575885,
      "state": "Andhra Pradesh",
      "police_contact": "0866-245948",
      "address": "Station Road, near Swaminarayan Temple, Ahmedabad, Andhra Pradesh",
      "zones_config": [],
      "exit_routes_config": []
    },
    "T61": {
      "id": "T61",
      "name": "Agroha Dham",
      "latitude": 29.332216,
      "longitude": 75.625477,
      "state": "Andhra Pradesh",
      "police_contact": "0866-248250",
      "address": "Station Road, near Agroha Dham, Andhra Pradesh",
      "zones_config": [],
      "exit_routes_config": []
    },
    "T62": {
      "id": "T62",
      "name": "Brahma Sarovar",
      "latitude": 29.9612772,
      "longitude": 76.8274,
      "state": "Andhra Pradesh",
      "police_contact": "0866-248592",
      "address": "Station Road, near Brahma Sarovar, Andhra Pradesh",
      "zones_config": [],
      "exit_routes_config": []
    },
    "T63": {
      "id": "T63",
      "name": "Jyotisar",
      "latitude": 29.9635209,
      "longitude": 76.7718268,
      "state": "Andhra Pradesh",
      "police_contact": "0866-246560",
      "address": "Station Road, near Jyotisar, Andhra Pradesh",
      "zones_config": [],
      "exit_routes_config": []
    },
    "T64": {
      "id": "T64",
      "name": "Sthaneshwar Mahadev Temple",
      "latitude": 29.9812784,
      "longitude": 76.8277945,
      "state": "Andhra Pradesh",
      "police_contact": "0866-248536",
      "address": "Station Road, near Sthaneshwar Mahadev Temple, Andhra Pradesh",
      "zones_config": [],
      "exit_routes_config": []
    },
    "T65": {
      "id": "T65",
      "name": "Aadi Himani Chamunda",
      "latitude": 32.1926888,
      "longitude": 76.4504114,
      "state": "Andhra Pradesh",
      "police_contact": "0866-242384",
      "address": "Station Road, near Aadi Himani Chamunda, Andhra Pradesh",
      "zones_config": [],
      "exit_routes_config": []
    },
    "T66": {
      "id": "T66",
      "name": "Baglamukhi Temple, Bankhandi",
      "latitude": 31.9677806,
      "longitude": 76.2050489,
      "state": "Andhra Pradesh",
      "police_contact": "0866-247561",
      "address": "Station Road, near Baglamukhi Temple, Bankhandi, Andhra Pradesh",
      "zones_config": [],
      "exit_routes_config": []
    },
    "T67": {
      "id": "T67",
      "name": "Bijli Mahadev",
      "latitude": 31.9388881,
      "longitude": 77.1470644,
      "state": "Andhra Pradesh",
      "police_contact": "0866-242710",
      "address": "Station Road, near Bijli Mahadev, Andhra Pradesh",
      "zones_config": [],
      "exit_routes_config": []
    },
    "T68": {
      "id": "T68",
      "name": "Chaurasi Temple",
      "latitude": 32.6215238,
      "longitude": 76.4035663,
      "state": "Andhra Pradesh",
      "police_contact": "0866-241378",
      "address": "Station Road, near Chaurasi Temple, Andhra Pradesh",
      "zones_config": [],
      "exit_routes_config": []
    },
    "T69": {
      "id": "T69",
      "name": "Dhingu Mata Temple",
      "latitude": 31.1044384,
      "longitude": 77.2006164,
      "state": "Andhra Pradesh",
      "police_contact": "0866-243226",
      "address": "Station Road, near Dhingu Mata Temple, Andhra Pradesh",
      "zones_config": [],
      "exit_routes_config": []
    },
    "T70": {
      "id": "T70",
      "name": "Kali Bari",
      "latitude": 32.8665034,
      "longitude": 76.5915324,
      "state": "Andhra Pradesh",
      "police_contact": "0866-247470",
      "address": "Station Road, near Kali Bari, Andhra Pradesh",
      "zones_config": [],
      "exit_routes_config": []
    },
    "T71": {
      "id": "T71",
      "name": "Manikaran",
      "latitude": 32.0273214,
      "longitude": 77.3464072,
      "state": "Andhra Pradesh",
      "police_contact": "0866-248625",
      "address": "Station Road, near Manikaran, Andhra Pradesh",
      "zones_config": [],
      "exit_routes_config": []
    },
    "T72": {
      "id": "T72",
      "name": "Manimahesh Kailash Peak",
      "latitude": 32.3510368,
      "longitude": 76.6524361,
      "state": "Andhra Pradesh",
      "police_contact": "0866-247006",
      "address": "Station Road, near Manimahesh Kailash Peak, Andhra Pradesh",
      "zones_config": [],
      "exit_routes_config": []
    },
    "T73": {
      "id": "T73",
      "name": "Mindhal Mata Temple",
      "latitude": 32.9950061,
      "longitude": 76.4274845,
      "state": "Andhra Pradesh",
      "police_contact": "0866-243837",
      "address": "Station Road, near Mindhal Mata Temple, Andhra Pradesh",
      "zones_config": [],
      "exit_routes_config": []
    },
    "T74": {
      "id": "T74",
      "name": "Naina Devi",
      "latitude": 31.3081912,
      "longitude": 76.5362208,
      "state": "Andhra Pradesh",
      "police_contact": "0866-241770",
      "address": "Station Road, near Naina Devi, Andhra Pradesh",
      "zones_config": [],
      "exit_routes_config": []
    },
    "T75": {
      "id": "T75",
      "name": "Renuka Ji",
      "latitude": 30.6088915,
      "longitude": 77.4493668,
      "state": "Andhra Pradesh",
      "police_contact": "0866-242365",
      "address": "Station Road, near Renuka Ji, Andhra Pradesh",
      "zones_config": [],
      "exit_routes_config": []
    },
    "T76": {
      "id": "T76",
      "name": "Shikari Devi Temple",
      "latitude": 31.4734215,
      "longitude": 77.1652358,
      "state": "Andhra Pradesh",
      "police_contact": "0866-249467",
      "address": "Station Road, near Shikari Devi Temple, Andhra Pradesh",
      "zones_config": [],
      "exit_routes_config": []
    },
    "T77": {
      "id": "T77",
      "name": "Tara Devi Temple",
      "latitude": 32.4260407,
      "longitude": 75.9488736,
      "state": "Andhra Pradesh",
      "police_contact": "0866-245747",
      "address": "Station Road, near Tara Devi Temple, Andhra Pradesh",
      "zones_config": [],
      "exit_routes_config": []
    },
    "T78": {
      "id": "T78",
      "name": "Triloknath Temple",
      "latitude": 32.684447,
      "longitude": 76.6955668,
      "state": "Andhra Pradesh",
      "police_contact": "0866-245065",
      "address": "Station Road, near Triloknath Temple, Andhra Pradesh",
      "zones_config": [],
      "exit_routes_config": []
    },
    "T79": {
      "id": "T79",
      "name": "Triloknath Temple",
      "latitude": 32.684447,
      "longitude": 76.6955668,
      "state": "Andhra Pradesh",
      "police_contact": "0866-247424",
      "address": "Station Road, near Triloknath Temple, Andhra Pradesh",
      "zones_config": [],
      "exit_routes_config": []
    },
    "T80": {
      "id": "T80",
      "name": "Chhinnamasta Temple",
      "latitude": 23.6322495,
      "longitude": 85.7106648,
      "state": "Andhra Pradesh",
      "police_contact": "0866-242574",
      "address": "Station Road, near Chhinnamasta Temple, Andhra Pradesh",
      "zones_config": [],
      "exit_routes_config": []
    },
    "T81": {
      "id": "T81",
      "name": "Harihar Dham",
      "latitude": 24.0702801,
      "longitude": 85.8216674,
      "state": "Andhra Pradesh",
      "police_contact": "0866-245700",
      "address": "Station Road, near Harihar Dham, Andhra Pradesh",
      "zones_config": [],
      "exit_routes_config": []
    },
    "T82": {
      "id": "T82",
      "name": "Jagannath Temple",
      "latitude": 23.3168885,
      "longitude": 85.2818038,
      "state": "Andhra Pradesh",
      "police_contact": "0866-242604",
      "address": "Station Road, near Jagannath Temple, Andhra Pradesh",
      "zones_config": [],
      "exit_routes_config": []
    },
    "T83": {
      "id": "T83",
      "name": "Maluti temples",
      "latitude": 24.159622,
      "longitude": 87.6748896,
      "state": "Andhra Pradesh",
      "police_contact": "0866-247584",
      "address": "Station Road, near Maluti temples, Andhra Pradesh",
      "zones_config": [],
      "exit_routes_config": []
    },
    "T84": {
      "id": "T84",
      "name": "Annapoorneshwari Temple",
      "latitude": 12.9791072,
      "longitude": 74.9006001,
      "state": "Andhra Pradesh",
      "police_contact": "0866-243376",
      "address": "Station Road, near Annapoorneshwari Temple, Andhra Pradesh",
      "zones_config": [],
      "exit_routes_config": []
    },
    "T85": {
      "id": "T85",
      "name": "Badami cave temples",
      "latitude": 15.9183722,
      "longitude": 75.6843849,
      "state": "Andhra Pradesh",
      "police_contact": "0866-246277",
      "address": "Station Road, near Badami cave temples, Andhra Pradesh",
      "zones_config": [],
      "exit_routes_config": []
    },
    "T86": {
      "id": "T86",
      "name": "Dharmaraya Swamy Temple",
      "latitude": 12.9655211,
      "longitude": 77.5831867,
      "state": "Andhra Pradesh",
      "police_contact": "0866-246026",
      "address": "Station Road, near Dharmaraya Swamy Temple, Andhra Pradesh",
      "zones_config": [],
      "exit_routes_config": []
    },
    "T87": {
      "id": "T87",
      "name": "Dharmasthala Temple",
      "latitude": 12.9503752,
      "longitude": 75.3806509,
      "state": "Andhra Pradesh",
      "police_contact": "0866-244245",
      "address": "Station Road, near Dharmasthala Temple, Andhra Pradesh",
      "zones_config": [],
      "exit_routes_config": []
    },
    "T88": {
      "id": "T88",
      "name": "Gavi Gangadhareshwara Temple",
      "latitude": 12.9482055,
      "longitude": 77.5629917,
      "state": "Andhra Pradesh",
      "police_contact": "0866-245829",
      "address": "Station Road, near Gavi Gangadhareshwara Temple, Andhra Pradesh",
      "zones_config": [],
      "exit_routes_config": []
    },
    "T89": {
      "id": "T89",
      "name": "Ghati Subramanya",
      "latitude": 13.4091833,
      "longitude": 77.5296324,
      "state": "Andhra Pradesh",
      "police_contact": "0866-247132",
      "address": "Station Road, near Ghati Subramanya, Andhra Pradesh",
      "zones_config": [],
      "exit_routes_config": []
    },
    "T90": {
      "id": "T90",
      "name": "Hampi",
      "latitude": 15.3358,
      "longitude": 76.4610201,
      "state": "Andhra Pradesh",
      "police_contact": "0866-249872",
      "address": "Station Road, near Hampi, Andhra Pradesh",
      "zones_config": [],
      "exit_routes_config": []
    },
    "T91": {
      "id": "T91",
      "name": "Hoysaleswara Temple",
      "latitude": 13.2124476,
      "longitude": 75.9942568,
      "state": "Andhra Pradesh",
      "police_contact": "0866-248821",
      "address": "Station Road, near Hoysaleswara Temple, Andhra Pradesh",
      "zones_config": [],
      "exit_routes_config": []
    },
    "T92": {
      "id": "T92",
      "name": "ISKCON Temple, Bangalore",
      "latitude": 13.0116837,
      "longitude": 77.5516458,
      "state": "Andhra Pradesh",
      "police_contact": "0866-248617",
      "address": "Station Road, near ISKCON Temple, Bangalore, Andhra Pradesh",
      "zones_config": [],
      "exit_routes_config": []
    },
    "T93": {
      "id": "T93",
      "name": "Kateel",
      "latitude": 13.0450256,
      "longitude": 74.8700656,
      "state": "Andhra Pradesh",
      "police_contact": "0866-247823",
      "address": "Station Road, near Kateel, Andhra Pradesh",
      "zones_config": [],
      "exit_routes_config": []
    },
    "T94": {
      "id": "T94",
      "name": "Mahadeshwara Temple",
      "latitude": 12.6790505,
      "longitude": 77.5835424,
      "state": "Andhra Pradesh",
      "police_contact": "0866-246107",
      "address": "Station Road, near Mahadeshwara Temple, Andhra Pradesh",
      "zones_config": [],
      "exit_routes_config": []
    },
    "T95": {
      "id": "T95",
      "name": "Mookambika temple",
      "latitude": 13.8637235,
      "longitude": 74.8145495,
      "state": "Andhra Pradesh",
      "police_contact": "0866-244268",
      "address": "Station Road, near Mookambika temple, Andhra Pradesh",
      "zones_config": [],
      "exit_routes_config": []
    },
    "T96": {
      "id": "T96",
      "name": "Murudeshwara",
      "latitude": 14.1008191,
      "longitude": 74.505423,
      "state": "Andhra Pradesh",
      "police_contact": "0866-248648",
      "address": "Station Road, near Murudeshwara, Andhra Pradesh",
      "zones_config": [],
      "exit_routes_config": []
    },
    "T97": {
      "id": "T97",
      "name": "Pattadakal",
      "latitude": 15.9484334,
      "longitude": 75.8159703,
      "state": "Andhra Pradesh",
      "police_contact": "0866-243759",
      "address": "Station Road, near Pattadakal, Andhra Pradesh",
      "zones_config": [],
      "exit_routes_config": []
    },
    "T98": {
      "id": "T98",
      "name": "Sri Venkataramana Temple, Karkala",
      "latitude": 13.2157741,
      "longitude": 74.9927827,
      "state": "Andhra Pradesh",
      "police_contact": "0866-245843",
      "address": "Station Road, near Sri Venkataramana Temple, Karkala, Andhra Pradesh",
      "zones_config": [],
      "exit_routes_config": []
    },
    "T99": {
      "id": "T99",
      "name": "Sharadamba Temple, Sringeri",
      "latitude": 13.4161389,
      "longitude": 75.2513769,
      "state": "Andhra Pradesh",
      "police_contact": "0866-249282",
      "address": "Station Road, near Sharadamba Temple, Sringeri, Andhra Pradesh",
      "zones_config": [],
      "exit_routes_config": []
    },
    "T100": {
      "id": "T100",
      "name": "Virupaksha Temple",
      "latitude": 15.3351651,
      "longitude": 76.4586825,
      "state": "Andhra Pradesh",
      "police_contact": "0866-244854",
      "address": "Station Road, near Virupaksha Temple, Andhra Pradesh",
      "zones_config": [],
      "exit_routes_config": []
    },
    "T101": {
      "id": "T101",
      "name": "Arattupuzha Temple",
      "latitude": 9.3283262,
      "longitude": 76.6483652,
      "state": "Andhra Pradesh",
      "police_contact": "0866-243970",
      "address": "Station Road, near Arattupuzha Temple, Andhra Pradesh",
      "zones_config": [],
      "exit_routes_config": []
    },
    "T102": {
      "id": "T102",
      "name": "Attukal Temple",
      "latitude": 8.4697972,
      "longitude": 76.9555129,
      "state": "Bihar",
      "police_contact": "0612-223429",
      "address": "Station Road, near Attukal Temple, Bihar",
      "zones_config": [],
      "exit_routes_config": []
    },
    "T103": {
      "id": "T103",
      "name": "Chakkulathukavu Temple",
      "latitude": 9.3670788,
      "longitude": 76.5147674,
      "state": "Bihar",
      "police_contact": "0612-222601",
      "address": "Station Road, near Chakkulathukavu Temple, Bihar",
      "zones_config": [],
      "exit_routes_config": []
    },
    "T104": {
      "id": "T104",
      "name": "Chettikulangara Devi Temple",
      "latitude": 9.2275927,
      "longitude": 76.5172569,
      "state": "Bihar",
      "police_contact": "0612-225850",
      "address": "Station Road, near Chettikulangara Devi Temple, Bihar",
      "zones_config": [],
      "exit_routes_config": []
    },
    "T105": {
      "id": "T105",
      "name": "Chottanikkara Temple",
      "latitude": 9.9333162,
      "longitude": 76.3911605,
      "state": "Bihar",
      "police_contact": "0612-223766",
      "address": "Station Road, near Chottanikkara Temple, Bihar",
      "zones_config": [],
      "exit_routes_config": []
    },
    "T106": {
      "id": "T106",
      "name": "Ernakulam Shiva Temple",
      "latitude": 9.9685159,
      "longitude": 76.2820429,
      "state": "Bihar",
      "police_contact": "0612-221264",
      "address": "Station Road, near Ernakulam Shiva Temple, Bihar",
      "zones_config": [],
      "exit_routes_config": []
    },
    "T107": {
      "id": "T107",
      "name": "Guruvayur Temple",
      "latitude": 10.5942942,
      "longitude": 76.0394112,
      "state": "Bihar",
      "police_contact": "0612-227405",
      "address": "Station Road, near Guruvayur Temple, Bihar",
      "zones_config": [],
      "exit_routes_config": []
    },
    "T108": {
      "id": "T108",
      "name": "Kottiyoor Temple",
      "latitude": 11.8746725,
      "longitude": 75.8629238,
      "state": "Bihar",
      "police_contact": "0612-229640",
      "address": "Station Road, near Kottiyoor Temple, Bihar",
      "zones_config": [],
      "exit_routes_config": []
    },
    "T109": {
      "id": "T109",
      "name": "Muthappan Temple",
      "latitude": 10.6177314,
      "longitude": 76.1577351,
      "state": "Bihar",
      "police_contact": "0612-229303",
      "address": "Station Road, near Muthappan Temple, Bihar",
      "zones_config": [],
      "exit_routes_config": []
    },
    "T110": {
      "id": "T110",
      "name": "Padmanabhaswamy Temple",
      "latitude": 8.4827027,
      "longitude": 76.9438872,
      "state": "Bihar",
      "police_contact": "0612-222192",
      "address": "Station Road, near Padmanabhaswamy Temple, Bihar",
      "zones_config": [],
      "exit_routes_config": []
    },
    "T111": {
      "id": "T111",
      "name": "Pisharikavu Temple",
      "latitude": 11.2974443,
      "longitude": 75.7760371,
      "state": "Bihar",
      "police_contact": "0612-221373",
      "address": "Station Road, near Pisharikavu Temple, Bihar",
      "zones_config": [],
      "exit_routes_config": []
    },
    "T112": {
      "id": "T112",
      "name": "Rajarajeshwara Temple",
      "latitude": 12.0483999,
      "longitude": 75.3557136,
      "state": "Bihar",
      "police_contact": "0612-229610",
      "address": "Station Road, near Rajarajeshwara Temple, Bihar",
      "zones_config": [],
      "exit_routes_config": []
    },
    "T113": {
      "id": "T113",
      "name": "Sabarimala Temple",
      "latitude": 9.4345886,
      "longitude": 77.0813869,
      "state": "Bihar",
      "police_contact": "0612-229614",
      "address": "Station Road, near Sabarimala Temple, Bihar",
      "zones_config": [],
      "exit_routes_config": []
    },
    "T114": {
      "id": "T114",
      "name": "Sreenarayanapuram Temple",
      "latitude": 8.7425995,
      "longitude": 76.7691029,
      "state": "Bihar",
      "police_contact": "0612-228398",
      "address": "Station Road, near Sreenarayanapuram Temple, Bihar",
      "zones_config": [],
      "exit_routes_config": []
    },
    "T115": {
      "id": "T115",
      "name": "Thirumoozhikkulam Lakshmana Perumal Temple",
      "latitude": 10.1877731,
      "longitude": 76.327102,
      "state": "Bihar",
      "police_contact": "0612-228180",
      "address": "Station Road, near Thirumoozhikkulam Lakshmana Perumal Temple, Bihar",
      "zones_config": [],
      "exit_routes_config": []
    },
    "T116": {
      "id": "T116",
      "name": "Thirunelli Temple",
      "latitude": 11.9082694,
      "longitude": 75.9963713,
      "state": "Bihar",
      "police_contact": "0612-225057",
      "address": "Station Road, near Thirunelli Temple, Bihar",
      "zones_config": [],
      "exit_routes_config": []
    },
    "T117": {
      "id": "T117",
      "name": "Thiruvanchikulam Temple",
      "latitude": 10.2102904,
      "longitude": 76.2065635,
      "state": "Bihar",
      "police_contact": "0612-227671",
      "address": "Station Road, near Thiruvanchikulam Temple, Bihar",
      "zones_config": [],
      "exit_routes_config": []
    },
    "T118": {
      "id": "T118",
      "name": "Thriprayar Temple",
      "latitude": 10.4142269,
      "longitude": 76.1152129,
      "state": "Bihar",
      "police_contact": "0612-225127",
      "address": "Station Road, near Thriprayar Temple, Bihar",
      "zones_config": [],
      "exit_routes_config": []
    },
    "T119": {
      "id": "T119",
      "name": "Vadakkunnathan Temple",
      "latitude": 10.5243886,
      "longitude": 76.2144851,
      "state": "Bihar",
      "police_contact": "0612-221546",
      "address": "Station Road, near Vadakkunnathan Temple, Bihar",
      "zones_config": [],
      "exit_routes_config": []
    },
    "T120": {
      "id": "T120",
      "name": "Dada Darbar",
      "latitude": 22.23177,
      "longitude": 76.0452095,
      "state": "Bihar",
      "police_contact": "0612-222476",
      "address": "Station Road, near Dada Darbar, Bihar",
      "zones_config": [],
      "exit_routes_config": []
    },
    "T121": {
      "id": "T121",
      "name": "Jatashankar",
      "latitude": 22.6275795,
      "longitude": 76.3745573,
      "state": "Bihar",
      "police_contact": "0612-223724",
      "address": "Station Road, near Jatashankar, Bihar",
      "zones_config": [],
      "exit_routes_config": []
    },
    "T122": {
      "id": "T122",
      "name": "Omkareshwar Temple",
      "latitude": 22.2456636,
      "longitude": 76.150782,
      "state": "Bihar",
      "police_contact": "0612-226107",
      "address": "Station Road, near Omkareshwar Temple, Bihar",
      "zones_config": [],
      "exit_routes_config": []
    },
    "T123": {
      "id": "T123",
      "name": "Ballaleshwar Pali",
      "latitude": 18.535215,
      "longitude": 73.2238557,
      "state": "Bihar",
      "police_contact": "0612-222824",
      "address": "Station Road, near Ballaleshwar Pali, Bihar",
      "zones_config": [],
      "exit_routes_config": []
    },
    "T124": {
      "id": "T124",
      "name": "Bhimashankar Temple",
      "latitude": 19.0719964,
      "longitude": 73.5360388,
      "state": "Bihar",
      "police_contact": "0612-223736",
      "address": "Station Road, near Bhimashankar Temple, Bihar",
      "zones_config": [],
      "exit_routes_config": []
    },
    "T125": {
      "id": "T125",
      "name": "BAPS Shri Swaminarayan",
      "latitude": 21.2480457,
      "longitude": 75.2771495,
      "state": "Bihar",
      "police_contact": "0612-221248",
      "address": "Station Road, near BAPS Shri Swaminarayan, Bihar",
      "zones_config": [],
      "exit_routes_config": []
    },
    "T126": {
      "id": "T126",
      "name": "Chaturshringi Temple",
      "latitude": 18.5379131,
      "longitude": 73.8300459,
      "state": "Bihar",
      "police_contact": "0612-222856",
      "address": "Station Road, near Chaturshringi Temple, Bihar",
      "zones_config": [],
      "exit_routes_config": []
    },
    "T127": {
      "id": "T127",
      "name": "Durgadi Fort",
      "latitude": 19.2452962,
      "longitude": 73.1186797,
      "state": "Bihar",
      "police_contact": "0612-224919",
      "address": "Station Road, near Durgadi Fort, Bihar",
      "zones_config": [],
      "exit_routes_config": []
    },
    "T128": {
      "id": "T128",
      "name": "Elephanta Caves",
      "latitude": 18.9630478,
      "longitude": 72.931902,
      "state": "Bihar",
      "police_contact": "0612-228122",
      "address": "Station Road, near Elephanta Caves, Bihar",
      "zones_config": [],
      "exit_routes_config": []
    },
    "T129": {
      "id": "T129",
      "name": "Moreshwar Temple, Morgaon",
      "latitude": 18.2781417,
      "longitude": 74.3174717,
      "state": "Bihar",
      "police_contact": "0612-221509",
      "address": "Station Road, near Moreshwar Temple, Morgaon, Bihar",
      "zones_config": [],
      "exit_routes_config": []
    },
    "T130": {
      "id": "T130",
      "name": "Ganpatipule",
      "latitude": 17.1466952,
      "longitude": 73.2697524,
      "state": "Bihar",
      "police_contact": "0612-221476",
      "address": "Station Road, near Ganpatipule, Bihar",
      "zones_config": [],
      "exit_routes_config": []
    },
    "T131": {
      "id": "T131",
      "name": "Gondeshwar Temple, Sinnar",
      "latitude": 19.8510869,
      "longitude": 74.002131,
      "state": "Bihar",
      "police_contact": "0612-226549",
      "address": "Station Road, near Gondeshwar Temple, Sinnar, Bihar",
      "zones_config": [],
      "exit_routes_config": []
    },
    "T132": {
      "id": "T132",
      "name": "Harishchandragad",
      "latitude": 19.386652,
      "longitude": 73.7770085,
      "state": "Bihar",
      "police_contact": "0612-228173",
      "address": "Station Road, near Harishchandragad, Bihar",
      "zones_config": [],
      "exit_routes_config": []
    },
    "T133": {
      "id": "T133",
      "name": "ISKCON Temple, Pune",
      "latitude": 18.5200118,
      "longitude": 73.8794776,
      "state": "Bihar",
      "police_contact": "0612-224423",
      "address": "Station Road, near ISKCON Temple, Pune, Bihar",
      "zones_config": [],
      "exit_routes_config": []
    },
    "T134": {
      "id": "T134",
      "name": "Jogeshwari",
      "latitude": 19.1348994,
      "longitude": 72.8488199,
      "state": "Bihar",
      "police_contact": "0612-228579",
      "address": "Station Road, near Jogeshwari, Bihar",
      "zones_config": [],
      "exit_routes_config": []
    },
    "T135": {
      "id": "T135",
      "name": "Khandoba Mandir",
      "latitude": 18.5176567,
      "longitude": 73.7682867,
      "state": "Bihar",
      "police_contact": "0612-228763",
      "address": "Station Road, near Khandoba Mandir, Bihar",
      "zones_config": [],
      "exit_routes_config": []
    },
    "T136": {
      "id": "T136",
      "name": "Mahalakshmi Temple, Kolhapur",
      "latitude": 16.6948575,
      "longitude": 74.2228947,
      "state": "Bihar",
      "police_contact": "0612-224437",
      "address": "Station Road, near Mahalakshmi Temple, Kolhapur, Bihar",
      "zones_config": [],
      "exit_routes_config": []
    },
    "T137": {
      "id": "T137",
      "name": "Mahalakshmi Temple, Mahalakshmi, Mumbai",
      "latitude": 18.9773651,
      "longitude": 72.8064639,
      "state": "Bihar",
      "police_contact": "0612-228869",
      "address": "Station Road, near Mahalakshmi Temple, Mahalakshmi, Mumbai, Bihar",
      "zones_config": [],
      "exit_routes_config": []
    },
    "T138": {
      "id": "T138",
      "name": "Mahur",
      "latitude": 19.8479785,
      "longitude": 77.9217634,
      "state": "Bihar",
      "police_contact": "0612-227122",
      "address": "Station Road, near Mahur, Bihar",
      "zones_config": [],
      "exit_routes_config": []
    },
    "T139": {
      "id": "T139",
      "name": "Morya Gosavi",
      "latitude": 18.6207718,
      "longitude": 73.7862304,
      "state": "Bihar",
      "police_contact": "0612-222997",
      "address": "Station Road, near Morya Gosavi, Bihar",
      "zones_config": [],
      "exit_routes_config": []
    },
    "T140": {
      "id": "T140",
      "name": "Mumbra Devi Temple",
      "latitude": 19.1934286,
      "longitude": 73.0188252,
      "state": "Bihar",
      "police_contact": "0612-229516",
      "address": "Station Road, near Mumbra Devi Temple, Bihar",
      "zones_config": [],
      "exit_routes_config": []
    },
    "T141": {
      "id": "T141",
      "name": "Narsobawadi",
      "latitude": 16.7655324,
      "longitude": 74.5454546,
      "state": "Bihar",
      "police_contact": "0612-222092",
      "address": "Station Road, near Narsobawadi, Bihar",
      "zones_config": [],
      "exit_routes_config": []
    },
    "T142": {
      "id": "T142",
      "name": "Padmalaya",
      "latitude": 20.8724461,
      "longitude": 75.3939289,
      "state": "Bihar",
      "police_contact": "0612-227778",
      "address": "Station Road, near Padmalaya, Bihar",
      "zones_config": [],
      "exit_routes_config": []
    },
    "T143": {
      "id": "T143",
      "name": "Ram Mandir, Mumbai",
      "latitude": 19.151023,
      "longitude": 72.8501467,
      "state": "Bihar",
      "police_contact": "0612-223754",
      "address": "Station Road, near Ram Mandir, Mumbai, Bihar",
      "zones_config": [],
      "exit_routes_config": []
    },
    "T144": {
      "id": "T144",
      "name": "Saptashrungi",
      "latitude": 19.9818194,
      "longitude": 73.7907427,
      "state": "Bihar",
      "police_contact": "0612-222371",
      "address": "Station Road, near Saptashrungi, Bihar",
      "zones_config": [],
      "exit_routes_config": []
    },
    "T145": {
      "id": "T145",
      "name": "Shri Sai Baba Temple, Shirdi",
      "latitude": 19.7665786,
      "longitude": 74.4772786,
      "state": "Bihar",
      "police_contact": "0612-229509",
      "address": "Station Road, near Shri Sai Baba Temple, Shirdi, Bihar",
      "zones_config": [],
      "exit_routes_config": []
    },
    "T146": {
      "id": "T146",
      "name": "Shiv Mandir, Maharashtra",
      "latitude": 19.1985533,
      "longitude": 73.1766641,
      "state": "Bihar",
      "police_contact": "0612-225787",
      "address": "Station Road, near Shiv Mandir, Maharashtra, Bihar",
      "zones_config": [],
      "exit_routes_config": []
    },
    "T147": {
      "id": "T147",
      "name": "Shree Swaminarayan Temple Mumbai",
      "latitude": 19.2055376,
      "longitude": 72.8454148,
      "state": "Bihar",
      "police_contact": "0612-222642",
      "address": "Station Road, near Shree Swaminarayan Temple Mumbai, Bihar",
      "zones_config": [],
      "exit_routes_config": []
    },
    "T148": {
      "id": "T148",
      "name": "Shri Swaminarayan Mandir, Mumbai",
      "latitude": 19.1947923,
      "longitude": 72.8466662,
      "state": "Bihar",
      "police_contact": "0612-228124",
      "address": "Station Road, near Shri Swaminarayan Mandir, Mumbai, Bihar",
      "zones_config": [],
      "exit_routes_config": []
    },
    "T149": {
      "id": "T149",
      "name": "Siddhivinayak Temple",
      "latitude": 18.444367,
      "longitude": 74.726371,
      "state": "Bihar",
      "police_contact": "0612-228516",
      "address": "Station Road, near Siddhivinayak Temple, Bihar",
      "zones_config": [],
      "exit_routes_config": []
    },
    "T150": {
      "id": "T150",
      "name": "Siddhivinayak Temple, Siddhatek",
      "latitude": 18.444367,
      "longitude": 74.726371,
      "state": "Bihar",
      "police_contact": "0612-223217",
      "address": "Station Road, near Siddhivinayak Temple, Siddhatek, Bihar",
      "zones_config": [],
      "exit_routes_config": []
    },
    "T151": {
      "id": "T151",
      "name": "Tulja Bhavani Temple",
      "latitude": 18.5004727,
      "longitude": 73.8390819,
      "state": "Bihar",
      "police_contact": "0612-228379",
      "address": "Station Road, near Tulja Bhavani Temple, Bihar",
      "zones_config": [],
      "exit_routes_config": []
    },
    "T152": {
      "id": "T152",
      "name": "Tulshibaug",
      "latitude": 18.5134369,
      "longitude": 73.8555749,
      "state": "Gujarat",
      "police_contact": "079-231514",
      "address": "Station Road, near Tulshibaug, Gujarat",
      "zones_config": [],
      "exit_routes_config": []
    },
    "T153": {
      "id": "T153",
      "name": "Varadvinayak",
      "latitude": 18.8105037,
      "longitude": 73.3013328,
      "state": "Gujarat",
      "police_contact": "079-237554",
      "address": "Station Road, near Varadvinayak, Gujarat",
      "zones_config": [],
      "exit_routes_config": []
    },
    "T154": {
      "id": "T154",
      "name": "Vithoba Temple",
      "latitude": 18.5097638,
      "longitude": 73.8016254,
      "state": "Gujarat",
      "police_contact": "079-232164",
      "address": "Station Road, near Vithoba Temple, Gujarat",
      "zones_config": [],
      "exit_routes_config": []
    },
    "T155": {
      "id": "T155",
      "name": "Shree Govindajee Temple",
      "latitude": 24.7978796,
      "longitude": 93.9484723,
      "state": "Gujarat",
      "police_contact": "079-238128",
      "address": "Station Road, near Shree Govindajee Temple, Gujarat",
      "zones_config": [],
      "exit_routes_config": []
    },
    "T156": {
      "id": "T156",
      "name": "Baladevjew Temple",
      "latitude": 20.4847504,
      "longitude": 86.4390315,
      "state": "Gujarat",
      "police_contact": "079-238012",
      "address": "Station Road, near Baladevjew Temple, Gujarat",
      "zones_config": [],
      "exit_routes_config": []
    },
    "T157": {
      "id": "T157",
      "name": "Bhagabati Temple, Banapur",
      "latitude": 19.7826439,
      "longitude": 85.1664729,
      "state": "Gujarat",
      "police_contact": "079-234517",
      "address": "Station Road, near Bhagabati Temple, Banapur, Gujarat",
      "zones_config": [],
      "exit_routes_config": []
    },
    "T158": {
      "id": "T158",
      "name": "Bharati Matha",
      "latitude": 20.240516,
      "longitude": 85.8318752,
      "state": "Gujarat",
      "police_contact": "079-235249",
      "address": "Station Road, near Bharati Matha, Gujarat",
      "zones_config": [],
      "exit_routes_config": []
    },
    "T159": {
      "id": "T159",
      "name": "Biraja Temple",
      "latitude": 20.8337268,
      "longitude": 86.3381699,
      "state": "Gujarat",
      "police_contact": "079-235866",
      "address": "Station Road, near Biraja Temple, Gujarat",
      "zones_config": [],
      "exit_routes_config": []
    },
    "T160": {
      "id": "T160",
      "name": "Dhabaleswar",
      "latitude": 20.1923244,
      "longitude": 85.8402492,
      "state": "Gujarat",
      "police_contact": "079-237495",
      "address": "Station Road, near Dhabaleswar, Gujarat",
      "zones_config": [],
      "exit_routes_config": []
    },
    "T161": {
      "id": "T161",
      "name": "Dharakote",
      "latitude": 19.6312499,
      "longitude": 84.6016034,
      "state": "Gujarat",
      "police_contact": "079-232596",
      "address": "Station Road, near Dharakote, Gujarat",
      "zones_config": [],
      "exit_routes_config": []
    }
  },
  "crowd_data": []
}